[
	{ "id" : "beachstreet",
	  "name" : "Beach Street",
	  "address" : "435 W. Beach Street",
	  "route" : "101/92/280/85/17/1",
	  "city" : "Watsonville",
	  "phone" : "831-722-2233",
      "status" : "open",
      "lat" : 36.906514,
      "lon" : -121.764811,
      "eta" : "8:17" },
	{ "id" : "duartes",
	  "name" : "Duarte’s Tavern",
	  "address" : "202 Stage Road",
	  "route" : "101/92/1",
	  "city" : "Pescadero",
	  "phone" : "650-879-0464",
      "status" : "open",
      "lat" : 37.252130,
      "lon" : -122.382808,
      "eta" : "8:30‡" },
	{ "id" : "elios",
	  "name" : "Elio's Family Restaurant",
	  "address" : "260 Floresta Blvd",
	  "route" : "101/92/880",
	  "city" : "San Leandro",
	  "phone" : "510-351-0463",
      "status" : "open",
      "lat" : 37.701490,
      "lon" : -122.142256,
      "eta" : "7:30" },
	{ "id" : "giacos",
	  "name" : "Giaco's Roadhouse",
	  "address" : "625 San Geronimo Valley Dr",
	  "route" : "101/380/280/1/101/Lucas Valley",
	  "city" : "San Geronimo",
	  "phone" : "415-488-0105",
      "status" : "was Two Bird",
      "lat" : 38.014095,
      "lon" : -122.667728,
      "eta" : "8:12" },
	{ "id" : "heavenly",
	  "name" : "Heavenly Roadside Cafe",
	  "address" : "1210 Mt Hermon Rd",
	  "route" : "101/92/280/85/17",
	  "city" : "Scotts Valley",
	  "phone" : "831-335-1210",
      "status" : "open",
      "lat" : 37.052654,
      "lon" : -122.037956,
      "eta" : "8:08" },
	{ "id" : "losgatos",
	  "name" : "Los Gatos Cafe",
	  "address" : "15662 Los Gatos Blvd",
	  "route" : "101/92/280/85",
	  "city" : "Los Gatos",
	  "phone" : "408-356-0600",
      "status" : "open",
      "lat" : 37.240614,
      "lon" : -121.959388,
      "eta" : "7:47" },
]
